<?xml version="1.0" encoding="utf-8"?>
<ArrayOfVolunteers>
  <Volunteer>
    <Id>361489842</Id>
    <Name>Dani Levy</Name>
    <Phone>0556752605</Phone>
    <Email>Dani@gmail.com</Email>
    <Address>Etsel 13, Jerusalem</Address>
    <Longitude>35.2132</Longitude>
    <Latitude>31.7884</Latitude>
    <MaxDistanceCall>369</MaxDistanceCall>
    <Role>Volunteer</Role>
    <DistanceType>Air</DistanceType>
    <Password />
    <IsActive>true</IsActive>
  </Volunteer>
  <Volunteer>
    <Id>323109173</Id>
    <Name>Eli Amar</Name>
    <Phone>0583242999</Phone>
    <Email>Eli@gmail.com</Email>
    <Address>King David Street 7, Jerusalem</Address>
    <Longitude>35.2285</Longitude>
    <Latitude>31.7767</Latitude>
    <MaxDistanceCall>768</MaxDistanceCall>
    <Role>Volunteer</Role>
    <DistanceType>Air</DistanceType>
    <Password />
    <IsActive>true</IsActive>
  </Volunteer>
  <Volunteer>
    <Id>378702682</Id>
    <Name>Yair Cohen</Name>
    <Phone>0504170648</Phone>
    <Email>Yair@gmail.com</Email>
    <Address>Ben Yehuda Street 45, Jerusalem</Address>
    <Longitude>35.2206</Longitude>
    <Latitude>31.781</Latitude>
    <MaxDistanceCall>386</MaxDistanceCall>
    <Role>Volunteer</Role>
    <DistanceType>Air</DistanceType>
    <Password />
    <IsActive>true</IsActive>
  </Volunteer>
  <Volunteer>
    <Id>234965085</Id>
    <Name>Ariela Levin</Name>
    <Phone>0583280970</Phone>
    <Email>Ariela@gmail.com</Email>
    <Address>Jaffa Street 56, Jerusalem</Address>
    <Longitude>35.215</Longitude>
    <Latitude>31.7835</Latitude>
    <MaxDistanceCall>638</MaxDistanceCall>
    <Role>Volunteer</Role>
    <DistanceType>Air</DistanceType>
    <Password />
    <IsActive>true</IsActive>
  </Volunteer>
  <Volunteer>
    <Id>250756798</Id>
    <Name>Dina Klein</Name>
    <Phone>0534146348</Phone>
    <Email>Dina@gmail.com</Email>
    <Address>Agrippas Street 22, Jerusalem</Address>
    <Longitude>35.2158</Longitude>
    <Latitude>31.7822</Latitude>
    <MaxDistanceCall>453</MaxDistanceCall>
    <Role>Volunteer</Role>
    <DistanceType>Air</DistanceType>
    <Password />
    <IsActive>true</IsActive>
  </Volunteer>
  <Volunteer>
    <Id>248024523</Id>
    <Name>Shira Israelof</Name>
    <Phone>0548478230</Phone>
    <Email>Shira@gmail.com</Email>
    <Address>Shmuel Hanavi Street 5, Jerusalem</Address>
    <Longitude>35.2201</Longitude>
    <Latitude>31.7963</Latitude>
    <MaxDistanceCall>720</MaxDistanceCall>
    <Role>Volunteer</Role>
    <DistanceType>Air</DistanceType>
    <Password />
    <IsActive>true</IsActive>
  </Volunteer>
  <Volunteer>
    <Id>234743391</Id>
    <Name>Sarah Cohen</Name>
    <Phone>0534185463</Phone>
    <Email>Sarah@gmail.com</Email>
    <Address>Yehuda Halevi Street 3, Jerusalem</Address>
    <Longitude>35.2234</Longitude>
    <Latitude>31.7761</Latitude>
    <MaxDistanceCall>644</MaxDistanceCall>
    <Role>Volunteer</Role>
    <DistanceType>Air</DistanceType>
    <Password />
    <IsActive>true</IsActive>
  </Volunteer>
  <Volunteer>
    <Id>352185730</Id>
    <Name>Jacob Levi</Name>
    <Phone>0527163362</Phone>
    <Email>Jacob@gmail.com</Email>
    <Address>Hillel Street 19, Jerusalem</Address>
    <Longitude>35.2202</Longitude>
    <Latitude>31.7795</Latitude>
    <MaxDistanceCall>511</MaxDistanceCall>
    <Role>Volunteer</Role>
    <DistanceType>Air</DistanceType>
    <Password />
    <IsActive>true</IsActive>
  </Volunteer>
  <Volunteer>
    <Id>258033158</Id>
    <Name>Leah Goldstein</Name>
    <Phone>0556798824</Phone>
    <Email>Leah@gmail.com</Email>
    <Address>Ramban Street 9, Jerusalem</Address>
    <Longitude>35.2209</Longitude>
    <Latitude>31.7809</Latitude>
    <MaxDistanceCall>229</MaxDistanceCall>
    <Role>Volunteer</Role>
    <DistanceType>Air</DistanceType>
    <Password />
    <IsActive>true</IsActive>
  </Volunteer>
  <Volunteer>
    <Id>341776722</Id>
    <Name>David Rosenberg</Name>
    <Phone>0556715713</Phone>
    <Email>David@gmail.com</Email>
    <Address>Strauss Street 12, Jerusalem</Address>
    <Longitude>35.2193</Longitude>
    <Latitude>31.7852</Latitude>
    <MaxDistanceCall>720</MaxDistanceCall>
    <Role>Volunteer</Role>
    <DistanceType>Air</DistanceType>
    <Password />
    <IsActive>true</IsActive>
  </Volunteer>
  <Volunteer>
    <Id>350730347</Id>
    <Name>Rachel Schwartz</Name>
    <Phone>0548449910</Phone>
    <Email>Rachel@gmail.com</Email>
    <Address>Yafo Road 34, Jerusalem</Address>
    <Longitude>35.218</Longitude>
    <Latitude>31.7819</Latitude>
    <MaxDistanceCall>690</MaxDistanceCall>
    <Role>Volunteer</Role>
    <DistanceType>Air</DistanceType>
    <Password />
    <IsActive>true</IsActive>
  </Volunteer>
  <Volunteer>
    <Id>202070470</Id>
    <Name>Isaac Cohen</Name>
    <Phone>0504114494</Phone>
    <Email>Isaac@gmail.com</Email>
    <Address>Kehilat Yaakov Street 8, Jerusalem</Address>
    <Longitude>35.2245</Longitude>
    <Latitude>31.789</Latitude>
    <MaxDistanceCall>906</MaxDistanceCall>
    <Role>Volunteer</Role>
    <DistanceType>Air</DistanceType>
    <Password />
    <IsActive>true</IsActive>
  </Volunteer>
  <Volunteer>
    <Id>310899935</Id>
    <Name>Rebecca Levy</Name>
    <Phone>0504127526</Phone>
    <Email>Rebecca@gmail.com</Email>
    <Address>Mordechai Ben Hillel Street 11, Jerusalem</Address>
    <Longitude>35.22</Longitude>
    <Latitude>31.783</Latitude>
    <MaxDistanceCall>870</MaxDistanceCall>
    <Role>Volunteer</Role>
    <DistanceType>Air</DistanceType>
    <Password />
    <IsActive>true</IsActive>
  </Volunteer>
  <Volunteer>
    <Id>368354627</Id>
    <Name>Aaron Friedman</Name>
    <Phone>0556734821</Phone>
    <Email>Aaron@gmail.com</Email>
    <Address>Keren Hayesod Street 16, Jerusalem</Address>
    <Longitude>35.2228</Longitude>
    <Latitude>31.7745</Latitude>
    <MaxDistanceCall>331</MaxDistanceCall>
    <Role>Volunteer</Role>
    <DistanceType>Air</DistanceType>
    <Password />
    <IsActive>true</IsActive>
  </Volunteer>
  <Volunteer>
    <Id>247700420</Id>
    <Name>d</Name>
    <Phone>0583244686</Phone>
    <Email>Miriam@gmail.com</Email>
    <Address>Shazar Boulevard 21, Jerusalem</Address>
    <Longitude>35.2034</Longitude>
    <Latitude>31.7897</Latitude>
    <MaxDistanceCall>915</MaxDistanceCall>
    <Role>Manager</Role>
    <DistanceType>Air</DistanceType>
    <Password />
    <IsActive>true</IsActive>
  </Volunteer>
  <Volunteer>
    <Id>322660739</Id>
    <Name>Benjamin Levy</Name>
    <Phone>0583240985</Phone>
    <Email>Benjamin@gmail.com</Email>
    <Address>25 Shlomzion Hamalka Street, Jerusalem:</Address>
    <Longitude>35.2256</Longitude>
    <Latitude>31.7773</Latitude>
    <MaxDistanceCall>129</MaxDistanceCall>
    <Role>Volunteer</Role>
    <DistanceType>Air</DistanceType>
    <Password />
    <IsActive>true</IsActive>
  </Volunteer>
</ArrayOfVolunteers>