<?xml version="1.0" encoding="utf-8"?>
<ArrayOfVolunteers>
  <Volunteer>
    <Id>227489978</Id>
    <Name>Dani Levy</Name>
    <Phone>0504167931</Phone>
    <Email>Dani@gmail.com</Email>
    <Address>Etsel 13, Jerusalem</Address>
    <Longitude>35.2132</Longitude>
    <Latitude>31.7884</Latitude>
    <MaxDistanceCall>236</MaxDistanceCall>
    <Role>Volunteer</Role>
    <DistanceType>Air</DistanceType>
    <Password />
    <IsActive>true</IsActive>
  </Volunteer>
  <Volunteer>
    <Id>331018754</Id>
    <Name>Eli Amar</Name>
    <Phone>0534168508</Phone>
    <Email>Eli@gmail.com</Email>
    <Address>King David Street 7, Jerusalem</Address>
    <Longitude>35.2285</Longitude>
    <Latitude>31.7767</Latitude>
    <MaxDistanceCall>332</MaxDistanceCall>
    <Role>Volunteer</Role>
    <DistanceType>Air</DistanceType>
    <Password />
    <IsActive>true</IsActive>
  </Volunteer>
  <Volunteer>
    <Id>228485249</Id>
    <Name>Yair Cohen</Name>
    <Phone>0534184094</Phone>
    <Email>Yair@gmail.com</Email>
    <Address>Ben Yehuda Street 45, Jerusalem</Address>
    <Longitude>35.2206</Longitude>
    <Latitude>31.781</Latitude>
    <MaxDistanceCall>104</MaxDistanceCall>
    <Role>Volunteer</Role>
    <DistanceType>Air</DistanceType>
    <Password />
    <IsActive>true</IsActive>
  </Volunteer>
  <Volunteer>
    <Id>389267592</Id>
    <Name>Ariela Levin</Name>
    <Phone>0527153342</Phone>
    <Email>Ariela@gmail.com</Email>
    <Address>Jaffa Street 56, Jerusalem</Address>
    <Longitude>35.215</Longitude>
    <Latitude>31.7835</Latitude>
    <MaxDistanceCall>314</MaxDistanceCall>
    <Role>Manager</Role>
    <DistanceType>Air</DistanceType>
    <Password />
    <IsActive>true</IsActive>
  </Volunteer>
  <Volunteer>
    <Id>270420680</Id>
    <Name>Dina Klein</Name>
    <Phone>0504110377</Phone>
    <Email>Dina@gmail.com</Email>
    <Address>Agrippas Street 22, Jerusalem</Address>
    <Longitude>35.2158</Longitude>
    <Latitude>31.7822</Latitude>
    <MaxDistanceCall>188</MaxDistanceCall>
    <Role>Volunteer</Role>
    <DistanceType>Air</DistanceType>
    <Password />
    <IsActive>true</IsActive>
  </Volunteer>
  <Volunteer>
    <Id>389918236</Id>
    <Name>Shira Israelof</Name>
    <Phone>0504121801</Phone>
    <Email>Shira@gmail.com</Email>
    <Address>Shmuel Hanavi Street 5, Jerusalem</Address>
    <Longitude>35.2201</Longitude>
    <Latitude>31.7963</Latitude>
    <MaxDistanceCall>614</MaxDistanceCall>
    <Role>Volunteer</Role>
    <DistanceType>Air</DistanceType>
    <Password />
    <IsActive>true</IsActive>
  </Volunteer>
  <Volunteer>
    <Id>281332734</Id>
    <Name>Sarah Cohen</Name>
    <Phone>0527113735</Phone>
    <Email>Sarah@gmail.com</Email>
    <Address>Yehuda Halevi Street 3, Jerusalem</Address>
    <Longitude>35.2234</Longitude>
    <Latitude>31.7761</Latitude>
    <MaxDistanceCall>72</MaxDistanceCall>
    <Role>Volunteer</Role>
    <DistanceType>Air</DistanceType>
    <Password />
    <IsActive>true</IsActive>
  </Volunteer>
  <Volunteer>
    <Id>240112458</Id>
    <Name>Jacob Levi</Name>
    <Phone>0548426697</Phone>
    <Email>Jacob@gmail.com</Email>
    <Address>Hillel Street 19, Jerusalem</Address>
    <Longitude>35.2202</Longitude>
    <Latitude>31.7795</Latitude>
    <MaxDistanceCall>954</MaxDistanceCall>
    <Role>Volunteer</Role>
    <DistanceType>Air</DistanceType>
    <Password />
    <IsActive>true</IsActive>
  </Volunteer>
  <Volunteer>
    <Id>228377818</Id>
    <Name>Leah Goldstein</Name>
    <Phone>0548443729</Phone>
    <Email>Leah@gmail.com</Email>
    <Address>Ramban Street 9, Jerusalem</Address>
    <Longitude>35.2209</Longitude>
    <Latitude>31.7809</Latitude>
    <MaxDistanceCall>600</MaxDistanceCall>
    <Role>Volunteer</Role>
    <DistanceType>Air</DistanceType>
    <Password />
    <IsActive>true</IsActive>
  </Volunteer>
  <Volunteer>
    <Id>277191276</Id>
    <Name>David Rosenberg</Name>
    <Phone>0534199892</Phone>
    <Email>David@gmail.com</Email>
    <Address>Strauss Street 12, Jerusalem</Address>
    <Longitude>35.2193</Longitude>
    <Latitude>31.7852</Latitude>
    <MaxDistanceCall>745</MaxDistanceCall>
    <Role>Volunteer</Role>
    <DistanceType>Air</DistanceType>
    <Password />
    <IsActive>true</IsActive>
  </Volunteer>
  <Volunteer>
    <Id>323637926</Id>
    <Name>Rachel Schwartz</Name>
    <Phone>0504118856</Phone>
    <Email>Rachel@gmail.com</Email>
    <Address>Yafo Road 34, Jerusalem</Address>
    <Longitude>35.218</Longitude>
    <Latitude>31.7819</Latitude>
    <MaxDistanceCall>70</MaxDistanceCall>
    <Role>Volunteer</Role>
    <DistanceType>Air</DistanceType>
    <Password />
    <IsActive>true</IsActive>
  </Volunteer>
  <Volunteer>
    <Id>398534420</Id>
    <Name>Isaac Cohen</Name>
    <Phone>0534148110</Phone>
    <Email>Isaac@gmail.com</Email>
    <Address>Kehilat Yaakov Street 8, Jerusalem</Address>
    <Longitude>35.2245</Longitude>
    <Latitude>31.789</Latitude>
    <MaxDistanceCall>70</MaxDistanceCall>
    <Role>Volunteer</Role>
    <DistanceType>Air</DistanceType>
    <Password />
    <IsActive>true</IsActive>
  </Volunteer>
  <Volunteer>
    <Id>337168561</Id>
    <Name>Rebecca Levy</Name>
    <Phone>0556789043</Phone>
    <Email>Rebecca@gmail.com</Email>
    <Address>Mordechai Ben Hillel Street 11, Jerusalem</Address>
    <Longitude>35.22</Longitude>
    <Latitude>31.783</Latitude>
    <MaxDistanceCall>361</MaxDistanceCall>
    <Role>Volunteer</Role>
    <DistanceType>Air</DistanceType>
    <Password />
    <IsActive>true</IsActive>
  </Volunteer>
  <Volunteer>
    <Id>262117500</Id>
    <Name>Aaron Friedman</Name>
    <Phone>0548423181</Phone>
    <Email>Aaron@gmail.com</Email>
    <Address>Keren Hayesod Street 16, Jerusalem</Address>
    <Longitude>35.2228</Longitude>
    <Latitude>31.7745</Latitude>
    <MaxDistanceCall>613</MaxDistanceCall>
    <Role>Volunteer</Role>
    <DistanceType>Air</DistanceType>
    <Password />
    <IsActive>true</IsActive>
  </Volunteer>
  <Volunteer>
    <Id>298313784</Id>
    <Name>Miriam Cohen</Name>
    <Phone>0548499502</Phone>
    <Email>Miriam@gmail.com</Email>
    <Address>Shazar Boulevard 21, Jerusalem</Address>
    <Longitude>35.2034</Longitude>
    <Latitude>31.7897</Latitude>
    <MaxDistanceCall>233</MaxDistanceCall>
    <Role>Volunteer</Role>
    <DistanceType>Air</DistanceType>
    <Password />
    <IsActive>true</IsActive>
  </Volunteer>
  <Volunteer>
    <Id>322643800</Id>
    <Name>Benjamin Levy</Name>
    <Phone>0583263417</Phone>
    <Email>Benjamin@gmail.com</Email>
    <Address>25 Shlomzion Hamalka Street, Jerusalem:</Address>
    <Longitude>35.2256</Longitude>
    <Latitude>31.7773</Latitude>
    <MaxDistanceCall>273</MaxDistanceCall>
    <Role>Volunteer</Role>
    <DistanceType>Air</DistanceType>
    <Password />
    <IsActive>true</IsActive>
  </Volunteer>
  <Volunteer>
    <Id>327796678</Id>
    <Name>m</Name>
    <Phone>0583243808</Phone>
    <Email>m0583243808@gmail.com</Email>
    <Address />
    <Longitude />
    <Latitude />
    <MaxDistanceCall />
    <Role>Volunteer</Role>
    <DistanceType>Air</DistanceType>
    <Password />
    <IsActive>true</IsActive>
  </Volunteer>
</ArrayOfVolunteers>