<?xml version="1.0" encoding="utf-8"?>
<ArrayOfVolunteers>
  <Volunteer>
    <Id>247508591</Id>
    <Name>Yair Cohen</Name>
    <Phone>0556737858</Phone>
    <Email>Yair@gmail.com</Email>
    <Address>Ben Yehuda Street 45, Jerusalem</Address>
    <Longitude>35.2206</Longitude>
    <Latitude>31.781</Latitude>
    <MaxDistanceCall>7</MaxDistanceCall>
    <Role>Volunteer</Role>
    <DistanceType>Air</DistanceType>
    <Password />
    <IsActive>true</IsActive>
  </Volunteer>
  <Volunteer>
    <Id>327007720</Id>
    <Name>Ariela Levin</Name>
    <Phone>0527141137</Phone>
    <Email>Ariela@gmail.com</Email>
    <Address>Jaffa Street 56, Jerusalem</Address>
    <Longitude>35.215</Longitude>
    <Latitude>31.7835</Latitude>
    <MaxDistanceCall>2</MaxDistanceCall>
    <Role>Volunteer</Role>
    <DistanceType>Air</DistanceType>
    <Password />
    <IsActive>true</IsActive>
  </Volunteer>
  <Volunteer>
    <Id>398574624</Id>
    <Name>Shira Israelof</Name>
    <Phone>0556732738</Phone>
    <Email>Shira@gmail.com</Email>
    <Address>Shmuel Hanavi Street 5, Jerusalem</Address>
    <Longitude>35.2201</Longitude>
    <Latitude>31.7963</Latitude>
    <MaxDistanceCall>2</MaxDistanceCall>
    <Role>Volunteer</Role>
    <DistanceType>Air</DistanceType>
    <Password />
    <IsActive>true</IsActive>
  </Volunteer>
  <Volunteer>
    <Id>330803313</Id>
    <Name>Sarah Cohen</Name>
    <Phone>0556787968</Phone>
    <Email>Sarah@gmail.com</Email>
    <Address>Yehuda Halevi Street 3, Jerusalem</Address>
    <Longitude>35.2234</Longitude>
    <Latitude>31.7761</Latitude>
    <MaxDistanceCall>9</MaxDistanceCall>
    <Role>Volunteer</Role>
    <DistanceType>Air</DistanceType>
    <Password />
    <IsActive>true</IsActive>
  </Volunteer>
  <Volunteer>
    <Id>310824404</Id>
    <Name>Jacob Levi</Name>
    <Phone>0534165132</Phone>
    <Email>Jacob@gmail.com</Email>
    <Address>Hillel Street 19, Jerusalem</Address>
    <Longitude>35.2202</Longitude>
    <Latitude>31.7795</Latitude>
    <MaxDistanceCall>3</MaxDistanceCall>
    <Role>Volunteer</Role>
    <DistanceType>Air</DistanceType>
    <Password />
    <IsActive>true</IsActive>
  </Volunteer>
  <Volunteer>
    <Id>225712835</Id>
    <Name>Leah Goldstein</Name>
    <Phone>0527187930</Phone>
    <Email>Leah@gmail.com</Email>
    <Address>Ramban Street 9, Jerusalem</Address>
    <Longitude>35.2209</Longitude>
    <Latitude>31.7809</Latitude>
    <MaxDistanceCall>5</MaxDistanceCall>
    <Role>Volunteer</Role>
    <DistanceType>Air</DistanceType>
    <Password />
    <IsActive>true</IsActive>
  </Volunteer>
  <Volunteer>
    <Id>345520787</Id>
    <Name>David Rosenberg</Name>
    <Phone>0534163420</Phone>
    <Email>David@gmail.com</Email>
    <Address>Strauss Street 12, Jerusalem</Address>
    <Longitude>35.2193</Longitude>
    <Latitude>31.7852</Latitude>
    <MaxDistanceCall>6</MaxDistanceCall>
    <Role>Volunteer</Role>
    <DistanceType>Air</DistanceType>
    <Password />
    <IsActive>true</IsActive>
  </Volunteer>
  <Volunteer>
    <Id>323058909</Id>
    <Name>Rachel Schwartz</Name>
    <Phone>0556730913</Phone>
    <Email>Rachel@gmail.com</Email>
    <Address>Yafo Road 34, Jerusalem</Address>
    <Longitude>35.218</Longitude>
    <Latitude>31.7819</Latitude>
    <MaxDistanceCall>5</MaxDistanceCall>
    <Role>Volunteer</Role>
    <DistanceType>Air</DistanceType>
    <Password />
    <IsActive>true</IsActive>
  </Volunteer>
  <Volunteer>
    <Id>339418642</Id>
    <Name>Isaac Cohen</Name>
    <Phone>0504180234</Phone>
    <Email>Isaac@gmail.com</Email>
    <Address>Kehilat Yaakov Street 8, Jerusalem</Address>
    <Longitude>35.2245</Longitude>
    <Latitude>31.789</Latitude>
    <MaxDistanceCall>0</MaxDistanceCall>
    <Role>Volunteer</Role>
    <DistanceType>Air</DistanceType>
    <Password />
    <IsActive>true</IsActive>
  </Volunteer>
  <Volunteer>
    <Id>350164885</Id>
    <Name>Rebecca Levy</Name>
    <Phone>0548462803</Phone>
    <Email>Rebecca@gmail.com</Email>
    <Address>Mordechai Ben Hillel Street 11, Jerusalem</Address>
    <Longitude>35.22</Longitude>
    <Latitude>31.783</Latitude>
    <MaxDistanceCall>6</MaxDistanceCall>
    <Role>Volunteer</Role>
    <DistanceType>Air</DistanceType>
    <Password />
    <IsActive>true</IsActive>
  </Volunteer>
  <Volunteer>
    <Id>336539259</Id>
    <Name>Aaron Friedman</Name>
    <Phone>0534166124</Phone>
    <Email>Aaron@gmail.com</Email>
    <Address>Keren Hayesod Street 16, Jerusalem</Address>
    <Longitude>35.2228</Longitude>
    <Latitude>31.7745</Latitude>
    <MaxDistanceCall>2</MaxDistanceCall>
    <Role>Volunteer</Role>
    <DistanceType>Air</DistanceType>
    <Password />
    <IsActive>true</IsActive>
  </Volunteer>
  <Volunteer>
    <Id>203470638</Id>
    <Name>Miriam Cohen</Name>
    <Phone>0534185643</Phone>
    <Email>Miriam@gmail.com</Email>
    <Address>Shazar Boulevard 21, Jerusalem</Address>
    <Longitude>35.2034</Longitude>
    <Latitude>31.7897</Latitude>
    <MaxDistanceCall>7</MaxDistanceCall>
    <Role>Volunteer</Role>
    <DistanceType>Air</DistanceType>
    <Password />
    <IsActive>true</IsActive>
  </Volunteer>
  <Volunteer>
    <Id>387062920</Id>
    <Name>Benjamin Levy</Name>
    <Phone>0527177197</Phone>
    <Email>Benjamin@gmail.com</Email>
    <Address>25 Shlomzion Hamalka Street, Jerusalem:</Address>
    <Longitude>35.2256</Longitude>
    <Latitude>31.7773</Latitude>
    <MaxDistanceCall>1</MaxDistanceCall>
    <Role>Volunteer</Role>
    <DistanceType>Air</DistanceType>
    <Password />
    <IsActive>true</IsActive>
  </Volunteer>
  <Volunteer>
    <Id>266621630</Id>
    <Name>Dani Levy</Name>
    <Phone>0556711789</Phone>
    <Email>Dani@gmail.com</Email>
    <Address>Etsel 13, Jerusalem</Address>
    <Longitude>34.9819467</Longitude>
    <Latitude>31.7511651</Latitude>
    <MaxDistanceCall>3</MaxDistanceCall>
    <Role>Manager</Role>
    <DistanceType>Air</DistanceType>
    <Password>pHkWlFPtRbgz8R6wRY7Z7A==</Password>
    <IsActive>true</IsActive>
  </Volunteer>
  <Volunteer>
    <Id>365202282</Id>
    <Name>Eli Amar</Name>
    <Phone>0527199634</Phone>
    <Email>Eli@gmail.com</Email>
    <Address>King David Street 7, Jerusalem</Address>
    <Longitude>35.205725</Longitude>
    <Latitude>31.70954</Latitude>
    <MaxDistanceCall>6</MaxDistanceCall>
    <Role>Volunteer</Role>
    <DistanceType>Air</DistanceType>
    <Password>HZwPATPzKN5WoDhL+Il52Q==</Password>
    <IsActive>true</IsActive>
  </Volunteer>
  <Volunteer>
    <Id>366880227</Id>
    <Name>Dina Klein</Name>
    <Phone>0504199733</Phone>
    <Email>Dina@gmail.com</Email>
    <Address>Agrippas Street 22, Jerusalem</Address>
    <Longitude>35.196286</Longitude>
    <Latitude>31.69916</Latitude>
    <MaxDistanceCall>2</MaxDistanceCall>
    <Role>Volunteer</Role>
    <DistanceType>Air</DistanceType>
    <Password>qFsk0MeAzLPkE3FSTW5rjw==</Password>
    <IsActive>true</IsActive>
  </Volunteer>
</ArrayOfVolunteers>